{"type": "FeatureCollection", "features": [{"type": "Feature", "geometry": {"type": "Point", "coordinates": [-78.9958, 25.5654]}, "properties": {"name": "Guanahani"}}, {"type": "Feature", "geometry": {"type": "Point", "coordinates": [-78.0323, 25.0343]}, "properties": {"name": "Bahamas"}}, {"type": "Feature", "geometry": {"type": "Point", "coordinates": [-95.7129, 37.0902]}, "properties": {"name": "America"}}, {"type": "Feature", "geometry": {"type": "Point", "coordinates": [-106.3468, 56.1304]}, "properties": {"name": "Canada"}}, {"type": "Feature", "geometry": {"type": "Point", "coordinates": [-68.3074, -54.8129]}, "properties": {"name": "Tierra del Fuego"}}, {"type": "Feature", "geometry": {"type": "Point", "coordinates": [18.0, 35.0]}, "properties": {"name": "Mediterranean Sea"}}, {"type": "Feature", "geometry": {"type": "Point", "coordinates": [-37.9238, 25.7617]}, "properties": {"name": "Atlantic Ocean"}}, {"type": "Feature", "geometry": {"type": "Point", "coordinates": [4.4035, 51.2218]}, "properties": {"name": "Antwerp"}}, {"type": "Feature", "geometry": {"type": "Point", "coordinates": [-77.0319, 38.8904]}, "properties": {"name": "Library of Congress"}}, {"type": "Feature", "geometry": {"type": "Point", "coordinates": [-77.0319, 38.8904]}, "properties": {"name": "Washington, D.C."}}, {"type": "Feature", "geometry": {"type": "Point", "coordinates": [0.1278, 51.5074]}, "properties": {"name": "British Library"}}, {"type": "Feature", "geometry": {"type": "Point", "coordinates": [0.1278, 51.5074]}, "properties": {"name": "London"}}, {"type": "Feature", "geometry": {"type": "Point", "coordinates": [0.0, 51.4769]}, "properties": {"name": "Greenwich"}}, {"type": "Feature", "geometry": {"type": "Point", "coordinates": [0.0, 0.0]}, "properties": {"name": "Equator"}}, {"type": "Feature", "geometry": {"type": "Point", "coordinates": [0.0, 23.4368]}, "properties": {"name": "Tropic of Cancer"}}, {"type": "Feature", "geometry": {"type": "Point", "coordinates": [0.0, -23.4368]}, "properties": {"name": "Tropic of Capricorn"}}, {"type": "Feature", "geometry": {"type": "Point", "coordinates": [-114.0, 28.0]}, "properties": {"name": "Baja California"}}, {"type": "Feature", "geometry": {"type": "Point", "coordinates": [-60.1842, -3.7791]}, "properties": {"name": "Amazon River"}}, {"type": "Feature", "geometry": {"type": "Point", "coordinates": [-69.1981, -15.8263]}, "properties": {"name": "Lake Titicaca"}}, {"type": "Feature", "geometry": {"type": "Point", "coordinates": [-65.7509, -19.5732]}, "properties": {"name": "Potos\u00c3\u00ad"}}, {"type": "Feature", "geometry": {"type": "Point", "coordinates": [-99.1332, 19.4326]}, "properties": {"name": "Mexico City"}}, {"type": "Feature", "geometry": {"type": "Point", "coordinates": [-81.6868, 27.7663]}, "properties": {"name": "Florida"}}, {"type": "Feature", "geometry": {"type": "Point", "coordinates": [-64.0, -34.6076]}, "properties": {"name": "Argentina"}}, {"type": "Feature", "geometry": {"type": "Point", "coordinates": [78.9629, 20.5937]}, "properties": {"name": "India"}}, {"type": "Feature", "geometry": {"type": "Point", "coordinates": [-20.0, 15.0]}, "properties": {"name": "Eastern Atlantic"}}, {"type": "Feature", "geometry": {"type": "Point", "coordinates": [-95.7129, 37.0902]}, "properties": {"name": "United States"}}, {"type": "Feature", "geometry": {"type": "Point", "coordinates": [-3.7038, 40.4168]}, "properties": {"name": "Spanish Habsburg Empire"}}, {"type": "Feature", "geometry": {"type": "Point", "coordinates": [5.2913, 52.1326]}, "properties": {"name": "Netherlands"}}, {"type": "Feature", "geometry": {"type": "Point", "coordinates": [-4.02, 41.65]}, "properties": {"name": "Castile"}}, {"type": "Feature", "geometry": {"type": "Point", "coordinates": [-122.2605, 37.8719]}, "properties": {"name": "Berkeley"}}, {"type": "Feature", "geometry": {"type": "Point", "coordinates": [2.3522, 48.8566]}, "properties": {"name": "Paris"}}, {"type": "Feature", "geometry": {"type": "Point", "coordinates": [-55.0, -10.0]}, "properties": {"name": "Br\u00c3\u00a9sil"}}, {"type": "Feature", "geometry": {"type": "Point", "coordinates": [-53.0, 4.0]}, "properties": {"name": "Guyane Fran\u00c3\u00a7aise"}}, {"type": "Feature", "geometry": {"type": "Point", "coordinates": [2.1734, 41.3851]}, "properties": {"name": "Barcelona"}}, {"type": "Feature", "geometry": {"type": "Point", "coordinates": [-75.0152, -9.1899]}, "properties": {"name": "Per\u00c3\u00ba"}}, {"type": "Feature", "geometry": {"type": "Point", "coordinates": [-66.0, -16.5]}, "properties": {"name": "Bolivia"}}, {"type": "Feature", "geometry": {"type": "Point", "coordinates": [-64.0, -34.6076]}, "properties": {"name": "Rep\u00c3\u00bablica Argentina"}}, {"type": "Feature", "geometry": {"type": "Point", "coordinates": [11.5761, 48.1372]}, "properties": {"name": "Munich"}}, {"type": "Feature", "geometry": {"type": "Point", "coordinates": [10.7, 50.95]}, "properties": {"name": "Gotha"}}, {"type": "Feature", "geometry": {"type": "Point", "coordinates": [10.0, 51.0]}, "properties": {"name": "Germany"}}, {"type": "Feature", "geometry": {"type": "Point", "coordinates": [-5.9844, 37.3891]}, "properties": {"name": "Seville"}}, {"type": "Feature", "geometry": {"type": "Point", "coordinates": [-6.0, 39.0]}, "properties": {"name": "Extremadura"}}, {"type": "Feature", "geometry": {"type": "Point", "coordinates": [-5.8014, 40.094]}, "properties": {"name": "Monastery of Yuste"}}, {"type": "Feature", "geometry": {"type": "Point", "coordinates": [-5.8014, 40.094]}, "properties": {"name": "Yuste"}}, {"type": "Feature", "geometry": {"type": "Point", "coordinates": [3.6505, 50.2169]}, "properties": {"name": "Cateau Cambr\u00c3\u00a9sis"}}, {"type": "Feature", "geometry": {"type": "Point", "coordinates": [3.0636, 49.1938]}, "properties": {"name": "Valois"}}, {"type": "Feature", "geometry": {"type": "Point", "coordinates": [2.2137, 46.2276]}, "properties": {"name": "France"}}, {"type": "Feature", "geometry": {"type": "Point", "coordinates": [2.3522, 48.8566]}, "properties": {"name": "Henry II"}}, {"type": "Feature", "geometry": {"type": "Point", "coordinates": [-3.7038, 40.4168]}, "properties": {"name": "Philip II"}}, {"type": "Feature", "geometry": {"type": "Point", "coordinates": [-43.1787, -22.9135]}, "properties": {"name": "Guanabara Bay"}}, {"type": "Feature", "geometry": {"type": "Point", "coordinates": [-55.0, -10.0]}, "properties": {"name": "Brazil"}}, {"type": "Feature", "geometry": {"type": "Point", "coordinates": [-80.3062, 24.9019]}, "properties": {"name": "Florida Keys"}}, {"type": "Feature", "geometry": {"type": "Point", "coordinates": [-80.945, 33.8569]}, "properties": {"name": "South Carolina"}}, {"type": "Feature", "geometry": {"type": "Point", "coordinates": [-81.3149, 29.8948]}, "properties": {"name": "Saint Augustine"}}, {"type": "Feature", "geometry": {"type": "Point", "coordinates": [-90.0, 25.7617]}, "properties": {"name": "Gulf of Mexico"}}, {"type": "Feature", "geometry": {"type": "Point", "coordinates": [-72.0, 18.0]}, "properties": {"name": "West Indian"}}, {"type": "Feature", "geometry": {"type": "Point", "coordinates": [-72.0, 18.0]}, "properties": {"name": "Caribbean"}}, {"type": "Feature", "geometry": {"type": "Point", "coordinates": [-80.0, 25.0]}, "properties": {"name": "Straits of Florida"}}, {"type": "Feature", "geometry": {"type": "Point", "coordinates": [-77.7812, 21.5217]}, "properties": {"name": "Cuba"}}, {"type": "Feature", "geometry": {"type": "Point", "coordinates": [-14.4137, 26.1365]}, "properties": {"name": "Cape Bojador"}}, {"type": "Feature", "geometry": {"type": "Point", "coordinates": [-15.0, 28.0]}, "properties": {"name": "Canaries"}}, {"type": "Feature", "geometry": {"type": "Point", "coordinates": [-17.9898, 27.8206]}, "properties": {"name": "Ferro"}}, {"type": "Feature", "geometry": {"type": "Point", "coordinates": [-28.0338, 38.4713]}, "properties": {"name": "Pico"}}, {"type": "Feature", "geometry": {"type": "Point", "coordinates": [-27.9813, 38.7229]}, "properties": {"name": "Azores"}}, {"type": "Feature", "geometry": {"type": "Point", "coordinates": [-24.0, 16.0]}, "properties": {"name": "Cape Verde Islands"}}, {"type": "Feature", "geometry": {"type": "Point", "coordinates": [12.4964, 41.9028]}, "properties": {"name": "Rome"}}, {"type": "Feature", "geometry": {"type": "Point", "coordinates": [-43.1787, -22.9135]}, "properties": {"name": "Nicolas de Villegaignon"}}, {"type": "Feature", "geometry": {"type": "Point", "coordinates": [-43.1787, -22.9135]}, "properties": {"name": "La France Antarctique"}}, {"type": "Feature", "geometry": {"type": "Point", "coordinates": [-81.3149, 29.8948]}, "properties": {"name": "Jean Ribaut"}}, {"type": "Feature", "geometry": {"type": "Point", "coordinates": [-81.3149, 29.8948]}, "properties": {"name": "Ren\u00c3\u00a9 de Laudonni\u00c3\u00a9re"}}, {"type": "Feature", "geometry": {"type": "Point", "coordinates": [4.4994, 52.1552]}, "properties": {"name": "Leiden"}}, {"type": "Feature", "geometry": {"type": "Point", "coordinates": [7.0, 45.0]}, "properties": {"name": "Piedmont"}}, {"type": "Feature", "geometry": {"type": "Point", "coordinates": [13.0, 38.0]}, "properties": {"name": "Sicily"}}, {"type": "Feature", "geometry": {"type": "Point", "coordinates": [35.2433, 38.9637]}, "properties": {"name": "Turkey"}}, {"type": "Feature", "geometry": {"type": "Point", "coordinates": [53.0, 32.0]}, "properties": {"name": "Persia"}}, {"type": "Feature", "geometry": {"type": "Point", "coordinates": [14.2528, 40.8375]}, "properties": {"name": "Castaldo"}}, {"type": "Feature", "geometry": {"type": "Point", "coordinates": [11.3304, 43.3183]}, "properties": {"name": "Siena"}}, {"type": "Feature", "geometry": {"type": "Point", "coordinates": [12.401, 41.6985]}, "properties": {"name": "Ostia"}}, {"type": "Feature", "geometry": {"type": "Point", "coordinates": [3.285, 49.8424]}, "properties": {"name": "Saint -Quentin"}}, {"type": "Feature", "geometry": {"type": "Point", "coordinates": [2.8626, 50.8409]}, "properties": {"name": "Ypres"}}, {"type": "Feature", "geometry": {"type": "Point", "coordinates": [7.747, 48.3938]}, "properties": {"name": "Hableneuf"}}, {"type": "Feature", "geometry": {"type": "Point", "coordinates": [14.5001, 35.9375]}, "properties": {"name": "Malta"}}, {"type": "Feature", "geometry": {"type": "Point", "coordinates": [4.0, 47.0]}, "properties": {"name": "Bourgogne"}}, {"type": "Feature", "geometry": {"type": "Point", "coordinates": [3.0636, 50.6366]}, "properties": {"name": "Ferdinand de Launoy"}}, {"type": "Feature", "geometry": {"type": "Point", "coordinates": [35.2137, 31.7683]}, "properties": {"name": "Holy Land"}}, {"type": "Feature", "geometry": {"type": "Point", "coordinates": [4.4035, 51.2218]}, "properties": {"name": "Petru Laicksteen"}}, {"type": "Feature", "geometry": {"type": "Point", "coordinates": [4.4035, 51.2218]}, "properties": {"name": "Theatrum Orbis Terrarum"}}, {"type": "Feature", "geometry": {"type": "Point", "coordinates": [4.4035, 51.2218]}, "properties": {"name": "Plantin Press"}}, {"type": "Feature", "geometry": {"type": "Point", "coordinates": [4.4035, 51.2218]}, "properties": {"name": "Catalogus Auctorum Tabularum Geographicarum"}}, {"type": "Feature", "geometry": {"type": "Point", "coordinates": [5.2913, 52.1326]}, "properties": {"name": "Nederlansche Steden"}}, {"type": "Feature", "geometry": {"type": "Point", "coordinates": [4.4035, 51.2218]}, "properties": {"name": "Civitates Orbis Terrarum"}}, {"type": "Feature", "geometry": {"type": "Point", "coordinates": [4.4035, 51.2218]}, "properties": {"name": "Cosmographia"}}, {"type": "Feature", "geometry": {"type": "Point", "coordinates": [4.4035, 51.2218]}, "properties": {"name": "Antoine Perrenot"}}, {"type": "Feature", "geometry": {"type": "Point", "coordinates": [4.4035, 51.2218]}, "properties": {"name": "Cardinal de Granvelle"}}, {"type": "Feature", "geometry": {"type": "Point", "coordinates": [4.3517, 50.8503]}, "properties": {"name": "Brussels"}}, {"type": "Feature", "geometry": {"type": "Point", "coordinates": [16.3738, 48.2082]}, "properties": {"name": "Maria and Maximillian II"}}, {"type": "Feature", "geometry": {"type": "Point", "coordinates": [14.5, 47.5]}, "properties": {"name": "Austria"}}, {"type": "Feature", "geometry": {"type": "Point", "coordinates": [4.4035, 51.2218]}, "properties": {"name": "Divi Caroli V imp. opt. max. victoriae"}}, {"type": "Feature", "geometry": {"type": "Point", "coordinates": [-3.7038, 40.4168]}, "properties": {"name": "Charles V"}}, {"type": "Feature", "geometry": {"type": "Point", "coordinates": [11.5761, 48.1372]}, "properties": {"name": "Holy Roman Emperor"}}, {"type": "Feature", "geometry": {"type": "Point", "coordinates": [4.4035, 51.2218]}, "properties": {"name": "Pompa funebris"}}, {"type": "Feature", "geometry": {"type": "Point", "coordinates": [4.4035, 51.2218]}, "properties": {"name": "Jan Wellens or Willems"}}, {"type": "Feature", "geometry": {"type": "Point", "coordinates": [4.4035, 51.2218]}, "properties": {"name": "Mathias Cock"}}, {"type": "Feature", "geometry": {"type": "Point", "coordinates": [4.4035, 51.2218]}, "properties": {"name": "Guild of St. Luke"}}, {"type": "Feature", "geometry": {"type": "Point", "coordinates": [12.4964, 41.9028]}, "properties": {"name": "Antonio Salamanca"}}, {"type": "Feature", "geometry": {"type": "Point", "coordinates": [12.4964, 41.9028]}, "properties": {"name": "Antonio Lafrery"}}, {"type": "Feature", "geometry": {"type": "Point", "coordinates": [4.4035, 51.2218]}, "properties": {"name": "Aux Quatre Vents"}}, {"type": "Feature", "geometry": {"type": "Point", "coordinates": [4.0, 51.0]}, "properties": {"name": "Low Countries"}}, {"type": "Feature", "geometry": {"type": "Point", "coordinates": [5.2913, 52.1326]}, "properties": {"name": "Dutch masters"}}, {"type": "Feature", "geometry": {"type": "Point", "coordinates": [-5.9844, 37.3891]}, "properties": {"name": "Alonso de Chaves"}}, {"type": "Feature", "geometry": {"type": "Point", "coordinates": [-5.9844, 37.3891]}, "properties": {"name": "Francisco Falero"}}, {"type": "Feature", "geometry": {"type": "Point", "coordinates": [-5.9844, 37.3891]}, "properties": {"name": "Jer\u00c3\u00b3nimo de Chaves"}}, {"type": "Feature", "geometry": {"type": "Point", "coordinates": [-5.9844, 37.3891]}, "properties": {"name": "Sancho Guti\u00c3\u00a9rrez"}}, {"type": "Feature", "geometry": {"type": "Point", "coordinates": [-5.9844, 37.3891]}, "properties": {"name": "Alonso de Santa Cruz"}}, {"type": "Feature", "geometry": {"type": "Point", "coordinates": [-5.9844, 37.3891]}, "properties": {"name": "Archivo General de Indias"}}, {"type": "Feature", "geometry": {"type": "Point", "coordinates": [-5.9844, 37.3891]}, "properties": {"name": "Casa de la Contrataci\u00c3\u00b3n"}}, {"type": "Feature", "geometry": {"type": "Point", "coordinates": [-5.9844, 37.3891]}, "properties": {"name": "Pilot Major"}}, {"type": "Feature", "geometry": {"type": "Point", "coordinates": [-5.9844, 37.3891]}, "properties": {"name": "Diego Guti\u00c3\u00a9rrez"}}, {"type": "Feature", "geometry": {"type": "Point", "coordinates": [12.4964, 41.9028]}, "properties": {"name": "Americus Vespucius"}}, {"type": "Feature", "geometry": {"type": "Point", "coordinates": [12.4964, 41.9028]}, "properties": {"name": "Pope Alexander"}}, {"type": "Feature", "geometry": {"type": "Point", "coordinates": [12.4964, 41.9028]}, "properties": {"name": "Pope Martin V"}}, {"type": "Feature", "geometry": {"type": "Point", "coordinates": [12.4964, 41.9028]}, "properties": {"name": "Pope Nicholas V"}}, {"type": "Feature", "geometry": {"type": "Point", "coordinates": [12.4964, 41.9028]}, "properties": {"name": "Romanus Pontifex"}}, {"type": "Feature", "geometry": {"type": "Point", "coordinates": [12.4964, 41.9028]}, "properties": {"name": "Treaty of Tordesillas"}}, {"type": "Feature", "geometry": {"type": "Point", "coordinates": [12.4964, 41.9028]}, "properties": {"name": "Papal Bull"}}, {"type": "Feature", "geometry": {"type": "Point", "coordinates": [12.4964, 41.9028]}, "properties": {"name": "Christopher Columbus"}}, {"type": "Feature", "geometry": {"type": "Point", "coordinates": [75.7804, 11.0168]}, "properties": {"name": "Calicute"}}, {"type": "Feature", "geometry": {"type": "Point", "coordinates": [-27.9813, 38.7229]}, "properties": {"name": "La Flota De Portugal"}}, {"type": "Feature", "geometry": {"type": "Point", "coordinates": [4.3517, 50.8503]}, "properties": {"name": "Margarita de Parma"}}, {"type": "Feature", "geometry": {"type": "Point", "coordinates": [-3.7038, 40.4168]}, "properties": {"name": "Philip"}}, {"type": "Feature", "geometry": {"type": "Point", "coordinates": [-3.7038, 40.4168]}, "properties": {"name": "King of Spain"}}, {"type": "Feature", "geometry": {"type": "Point", "coordinates": [5.2913, 52.1326]}, "properties": {"name": "Regent of the Netherlands"}}, {"type": "Feature", "geometry": {"type": "Point", "coordinates": [3.6505, 50.2169]}, "properties": {"name": "Treaty of Cateau Cambr\u00c3\u00a9sis"}}, {"type": "Feature", "geometry": {"type": "Point", "coordinates": [3.6505, 50.2169]}, "properties": {"name": "Peace of Cateau Cambr\u00c3\u00a9sis"}}, {"type": "Feature", "geometry": {"type": "Point", "coordinates": [3.0636, 49.1938]}, "properties": {"name": "Elizabeth of Valois"}}, {"type": "Feature", "geometry": {"type": "Point", "coordinates": [2.3522, 48.8566]}, "properties": {"name": "Henry II"}}, {"type": "Feature", "geometry": {"type": "Point", "coordinates": [2.2137, 46.2276]}, "properties": {"name": "King of France"}}, {"type": "Feature", "geometry": {"type": "Point", "coordinates": [7.0, 52.0]}, "properties": {"name": "Peace of Westphalia"}}, {"type": "Feature", "geometry": {"type": "Point", "coordinates": [0.0, 52.0]}, "properties": {"name": "England"}}, {"type": "Feature", "geometry": {"type": "Point", "coordinates": [-8.0, 39.0]}, "properties": {"name": "Portugal"}}, {"type": "Feature", "geometry": {"type": "Point", "coordinates": [0.0, 0.0]}, "properties": {"name": "Prime Meridian"}}]}